{
  "type": "FeatureCollection",
  "crs": { "type": "name", "properties": { "name": "urn:ogc:def:crs:OGC:1.3:CRS84" } },
  "features": [
  { "type": "Feature", "properties": { "country_code": "ABW", "country_name": "Aruba" }, "geometry": { "type": "Point", "coordinates": [ -69.970275756091695, 12.509315412679772 ] } },
  { "type": "Feature", "properties": { "country_code": "AFG", "country_name": "Afghanistan" }, "geometry": { "type": "Point", "coordinates": [ 66.029586865000255, 33.828414475630844 ] } },
  { "type": "Feature", "properties": { "country_code": "AGO", "country_name": "Angola" }, "geometry": { "type": "Point", "coordinates": [ 17.549157954613172, -12.297964078220947 ] } },
  { "type": "Feature", "properties": { "country_code": "AIA", "country_name": "Anguilla" }, "geometry": { "type": "Point", "coordinates": [ -63.058133222970461, 18.223382248165624 ] } },
  { "type": "Feature", "properties": { "country_code": "ALA", "country_name": "Åland" }, "geometry": { "type": "Point", "coordinates": [ 20.164836607389908, 60.201934140199015 ] } },
  { "type": "Feature", "properties": { "country_code": "ALB", "country_name": "Albania" }, "geometry": { "type": "Point", "coordinates": [ 20.062842522993794, 41.140599002130315 ] } },
  { "type": "Feature", "properties": { "country_code": "AND", "country_name": "Andorra" }, "geometry": { "type": "Point", "coordinates": [ 1.575153924254594, 42.543800058038698 ] } },
  { "type": "Feature", "properties": { "country_code": "ARE", "country_name": "United Arab Emirates" }, "geometry": { "type": "Point", "coordinates": [ 54.327276213151535, 23.914674850998949 ] } },
  { "type": "Feature", "properties": { "country_code": "ARG", "country_name": "Argentina" }, "geometry": { "type": "Point", "coordinates": [ -65.16699763832591, -35.389959543035694 ] } },
  { "type": "Feature", "properties": { "country_code": "ARM", "country_name": "Armenia" }, "geometry": { "type": "Point", "coordinates": [ 44.938779466284487, 40.29433227226879 ] } },
  { "type": "Feature", "properties": { "country_code": "ASM", "country_name": "American Samoa" }, "geometry": { "type": "Point", "coordinates": [ -170.31417833934168, -14.223002425916068 ] } },
  { "type": "Feature", "properties": { "country_code": "ATA", "country_name": "Antarctica" }, "geometry": { "type": "Point", "coordinates": [ 19.872529062863592, -80.506955978043635 ] } },
  { "type": "Feature", "properties": { "country_code": "ATF", "country_name": "French Southern Territories" }, "geometry": { "type": "Point", "coordinates": [ 68.627405763277409, -48.977045427060276 ] } },
  { "type": "Feature", "properties": { "country_code": "ATG", "country_name": "Antigua and Barbuda" }, "geometry": { "type": "Point", "coordinates": [ -61.798267895744374, 17.270960859311934 ] } },
  { "type": "Feature", "properties": { "country_code": "AUS", "country_name": "Australia" }, "geometry": { "type": "Point", "coordinates": [ 134.491019991947951, -25.729097328423641 ] } },
  { "type": "Feature", "properties": { "country_code": "AUT", "country_name": "Austria" }, "geometry": { "type": "Point", "coordinates": [ 14.143039863045839, 47.58812407810521 ] } },
  { "type": "Feature", "properties": { "country_code": "AZE", "country_name": "Azerbaijan" }, "geometry": { "type": "Point", "coordinates": [ 47.530253903253438, 40.287483444025881 ] } },
  { "type": "Feature", "properties": { "country_code": "BDI", "country_name": "Burundi" }, "geometry": { "type": "Point", "coordinates": [ 29.889815939514754, -3.367655507852783 ] } },
  { "type": "Feature", "properties": { "country_code": "BEL", "country_name": "Belgium" }, "geometry": { "type": "Point", "coordinates": [ 4.662168469005408, 50.640943945289344 ] } },
  { "type": "Feature", "properties": { "country_code": "BEN", "country_name": "Benin" }, "geometry": { "type": "Point", "coordinates": [ 2.33971323341591, 9.654222833748175 ] } },
  { "type": "Feature", "properties": { "country_code": "BES", "country_name": "Bonaire, Sint Eustatius and Saba" }, "geometry": { "type": "Point", "coordinates": [ -67.668212810260158, 12.823158505811547 ] } },
  { "type": "Feature", "properties": { "country_code": "BFA", "country_name": "Burkina Faso" }, "geometry": { "type": "Point", "coordinates": [ -1.745660357556146, 12.274290446422985 ] } },
  { "type": "Feature", "properties": { "country_code": "BGD", "country_name": "Bangladesh" }, "geometry": { "type": "Point", "coordinates": [ 90.277384977756341, 23.836763007844443 ] } },
  { "type": "Feature", "properties": { "country_code": "BGR", "country_name": "Bulgaria" }, "geometry": { "type": "Point", "coordinates": [ 25.224651984004723, 42.755920714138092 ] } },
  { "type": "Feature", "properties": { "country_code": "BHR", "country_name": "Bahrain" }, "geometry": { "type": "Point", "coordinates": [ 50.560583609173108, 26.038854635967027 ] } },
  { "type": "Feature", "properties": { "country_code": "BHS", "country_name": "Bahamas" }, "geometry": { "type": "Point", "coordinates": [ -76.646532631430361, 24.259336036732037 ] } },
  { "type": "Feature", "properties": { "country_code": "BIH", "country_name": "Bosnia and Herzegovina" }, "geometry": { "type": "Point", "coordinates": [ 17.788758986168745, 44.175639489322457 ] } },
  { "type": "Feature", "properties": { "country_code": "BLM", "country_name": "Saint-Barthélemy" }, "geometry": { "type": "Point", "coordinates": [ -62.833741208815752, 17.906343054482207 ] } },
  { "type": "Feature", "properties": { "country_code": "BLR", "country_name": "Belarus" }, "geometry": { "type": "Point", "coordinates": [ 28.055907102346037, 53.545464580061505 ] } },
  { "type": "Feature", "properties": { "country_code": "BLZ", "country_name": "Belize" }, "geometry": { "type": "Point", "coordinates": [ -88.69052144989567, 17.208110787270144 ] } },
  { "type": "Feature", "properties": { "country_code": "BMU", "country_name": "Bermuda" }, "geometry": { "type": "Point", "coordinates": [ -64.767183102155386, 32.30941434641349 ] } },
  { "type": "Feature", "properties": { "country_code": "BOL", "country_name": "Bolivia" }, "geometry": { "type": "Point", "coordinates": [ -64.656762100615126, -16.713335905755205 ] } },
  { "type": "Feature", "properties": { "country_code": "BRA", "country_name": "Brazil" }, "geometry": { "type": "Point", "coordinates": [ -53.076588071374616, -10.743661084991013 ] } },
  { "type": "Feature", "properties": { "country_code": "BRB", "country_name": "Barbados" }, "geometry": { "type": "Point", "coordinates": [ -59.556389518530629, 13.172262063606363 ] } },
  { "type": "Feature", "properties": { "country_code": "BRN", "country_name": "Brunei" }, "geometry": { "type": "Point", "coordinates": [ 114.756092381036979, 4.528173761123454 ] } },
  { "type": "Feature", "properties": { "country_code": "BTN", "country_name": "Bhutan" }, "geometry": { "type": "Point", "coordinates": [ 90.428410146321809, 27.395671085531269 ] } },
  { "type": "Feature", "properties": { "country_code": "BVT", "country_name": "Bouvet Island" }, "geometry": { "type": "Point", "coordinates": [ 3.382162452820648, -54.428323156313297 ] } },
  { "type": "Feature", "properties": { "country_code": "BWA", "country_name": "Botswana" }, "geometry": { "type": "Point", "coordinates": [ 23.81353330607249, -22.188060478677482 ] } },
  { "type": "Feature", "properties": { "country_code": "CAF", "country_name": "Central African Republic" }, "geometry": { "type": "Point", "coordinates": [ 20.485532292983457, 6.574471477012121 ] } },
  { "type": "Feature", "properties": { "country_code": "CAN", "country_name": "Canada" }, "geometry": { "type": "Point", "coordinates": [ -98.269328866178654, 61.367413905513338 ] } },
  { "type": "Feature", "properties": { "country_code": "CCK", "country_name": "Cocos Islands" }, "geometry": { "type": "Point", "coordinates": [ 96.862179164922992, -12.134471053306031 ] } },
  { "type": "Feature", "properties": { "country_code": "CHE", "country_name": "Switzerland" }, "geometry": { "type": "Point", "coordinates": [ 8.230252577604253, 46.801067074370266 ] } },
  { "type": "Feature", "properties": { "country_code": "CHL", "country_name": "Chile" }, "geometry": { "type": "Point", "coordinates": [ -71.391895628521226, -38.02714410671134 ] } },
  { "type": "Feature", "properties": { "country_code": "CHN", "country_name": "China" }, "geometry": { "type": "Point", "coordinates": [ 103.857933940016366, 36.560697678800217 ] } },
  { "type": "Feature", "properties": { "country_code": "CIV", "country_name": "Côte d'Ivoire" }, "geometry": { "type": "Point", "coordinates": [ -5.554445908263126, 7.625538388779179 ] } },
  { "type": "Feature", "properties": { "country_code": "CMR", "country_name": "Cameroon" }, "geometry": { "type": "Point", "coordinates": [ 12.741505415469835, 5.693975851952636 ] } },
  { "type": "Feature", "properties": { "country_code": "COD", "country_name": "Democratic Republic of the Congo" }, "geometry": { "type": "Point", "coordinates": [ 23.660757637023963, -2.881188828216807 ] } },
  { "type": "Feature", "properties": { "country_code": "COG", "country_name": "Republic of Congo" }, "geometry": { "type": "Point", "coordinates": [ 15.244670114861252, -0.833252879202998 ] } },
  { "type": "Feature", "properties": { "country_code": "COK", "country_name": "Cook Islands" }, "geometry": { "type": "Point", "coordinates": [ -158.929246233979825, -19.18327527026981 ] } },
  { "type": "Feature", "properties": { "country_code": "COL", "country_name": "Colombia" }, "geometry": { "type": "Point", "coordinates": [ -73.086731051770144, 3.902582139255212 ] } },
  { "type": "Feature", "properties": { "country_code": "COM", "country_name": "Comoros" }, "geometry": { "type": "Point", "coordinates": [ 43.683955022093073, -11.894292336991073 ] } },
  { "type": "Feature", "properties": { "country_code": "CPV", "country_name": "Cape Verde" }, "geometry": { "type": "Point", "coordinates": [ -23.978196631013631, 15.947377693972637 ] } },
  { "type": "Feature", "properties": { "country_code": "CRI", "country_name": "Costa Rica" }, "geometry": { "type": "Point", "coordinates": [ -84.1955802091381, 9.971241679440618 ] } },
  { "type": "Feature", "properties": { "country_code": "CUB", "country_name": "Cuba" }, "geometry": { "type": "Point", "coordinates": [ -79.029796459299433, 21.625476650627522 ] } },
  { "type": "Feature", "properties": { "country_code": "CUW", "country_name": "Curaçao" }, "geometry": { "type": "Point", "coordinates": [ -68.971543923167957, 12.193377858824062 ] } },
  { "type": "Feature", "properties": { "country_code": "CXR", "country_name": "Christmas Island" }, "geometry": { "type": "Point", "coordinates": [ 105.636550979670531, -10.485341966197833 ] } },
  { "type": "Feature", "properties": { "country_code": "CYM", "country_name": "Cayman Islands" }, "geometry": { "type": "Point", "coordinates": [ -80.873584446005026, 19.425436292967678 ] } },
  { "type": "Feature", "properties": { "country_code": "CYP", "country_name": "Cyprus" }, "geometry": { "type": "Point", "coordinates": [ 33.003036974795101, 34.92672139425737 ] } },
  { "type": "Feature", "properties": { "country_code": "CZE", "country_name": "Czech Republic" }, "geometry": { "type": "Point", "coordinates": [ 15.330266146858191, 49.740586836925793 ] } },
  { "type": "Feature", "properties": { "country_code": "DEU", "country_name": "Germany" }, "geometry": { "type": "Point", "coordinates": [ 10.394249366914135, 51.109748436499174 ] } },
  { "type": "Feature", "properties": { "country_code": "DJI", "country_name": "Djibouti" }, "geometry": { "type": "Point", "coordinates": [ 42.571560257274719, 11.741841380333266 ] } },
  { "type": "Feature", "properties": { "country_code": "DMA", "country_name": "Dominica" }, "geometry": { "type": "Point", "coordinates": [ -61.349987778125048, 15.434551470985975 ] } },
  { "type": "Feature", "properties": { "country_code": "DNK", "country_name": "Denmark" }, "geometry": { "type": "Point", "coordinates": [ 10.055912633858476, 55.957767560103008 ] } },
  { "type": "Feature", "properties": { "country_code": "DOM", "country_name": "Dominican Republic" }, "geometry": { "type": "Point", "coordinates": [ -70.492884046898467, 18.895715420301745 ] } },
  { "type": "Feature", "properties": { "country_code": "DZA", "country_name": "Algeria" }, "geometry": { "type": "Point", "coordinates": [ 2.67714694773347, 28.158373270783461 ] } },
  { "type": "Feature", "properties": { "country_code": "ECU", "country_name": "Ecuador" }, "geometry": { "type": "Point", "coordinates": [ -78.775106748084269, -1.428012081167246 ] } },
  { "type": "Feature", "properties": { "country_code": "EGY", "country_name": "Egypt" }, "geometry": { "type": "Point", "coordinates": [ 29.783658379060309, 26.569787404853837 ] } },
  { "type": "Feature", "properties": { "country_code": "ERI", "country_name": "Eritrea" }, "geometry": { "type": "Point", "coordinates": [ 38.857271329351505, 15.381915181514703 ] } },
  { "type": "Feature", "properties": { "country_code": "ESH", "country_name": "Western Sahara" }, "geometry": { "type": "Point", "coordinates": [ -13.134732668255433, 24.679010562931268 ] } },
  { "type": "Feature", "properties": { "country_code": "ESP", "country_name": "Spain" }, "geometry": { "type": "Point", "coordinates": [ -3.64706829369293, 40.226895156159046 ] } },
  { "type": "Feature", "properties": { "country_code": "EST", "country_name": "Estonia" }, "geometry": { "type": "Point", "coordinates": [ 25.549711938271905, 58.670638612028931 ] } },
  { "type": "Feature", "properties": { "country_code": "ETH", "country_name": "Ethiopia" }, "geometry": { "type": "Point", "coordinates": [ 39.626195143078689, 8.629763743009395 ] } },
  { "type": "Feature", "properties": { "country_code": "FIN", "country_name": "Finland" }, "geometry": { "type": "Point", "coordinates": [ 26.246203151095781, 64.485745703770277 ] } },
  { "type": "Feature", "properties": { "country_code": "FJI", "country_name": "Fiji" }, "geometry": { "type": "Point", "coordinates": [ 161.799721971994927, -17.445625464501948 ] } },
  { "type": "Feature", "properties": { "country_code": "FLK", "country_name": "Falkland Islands" }, "geometry": { "type": "Point", "coordinates": [ -59.395270375614665, -51.741235779987285 ] } },
  { "type": "Feature", "properties": { "country_code": "FRA", "country_name": "France" }, "geometry": { "type": "Point", "coordinates": [ 2.553552405242147, 46.558915444292445 ] } },
  { "type": "Feature", "properties": { "country_code": "FRO", "country_name": "Faroe Islands" }, "geometry": { "type": "Point", "coordinates": [ -6.890424110610607, 62.069196040411413 ] } },
  { "type": "Feature", "properties": { "country_code": "FSM", "country_name": "Micronesia" }, "geometry": { "type": "Point", "coordinates": [ 154.64996574569534, 7.081098627350828 ] } },
  { "type": "Feature", "properties": { "country_code": "GAB", "country_name": "Gabon" }, "geometry": { "type": "Point", "coordinates": [ 11.784989282149711, -0.623357515432385 ] } },
  { "type": "Feature", "properties": { "country_code": "GBR", "country_name": "United Kingdom" }, "geometry": { "type": "Point", "coordinates": [ -2.895750436270327, 54.164734003676884 ] } },
  { "type": "Feature", "properties": { "country_code": "GEO", "country_name": "Georgia" }, "geometry": { "type": "Point", "coordinates": [ 43.519273542746703, 42.176975524264641 ] } },
  { "type": "Feature", "properties": { "country_code": "GGY", "country_name": "Guernsey" }, "geometry": { "type": "Point", "coordinates": [ -2.51477047436889, 49.485933177726835 ] } },
  { "type": "Feature", "properties": { "country_code": "GHA", "country_name": "Ghana" }, "geometry": { "type": "Point", "coordinates": [ -1.210711250543875, 7.966776906173124 ] } },
  { "type": "Feature", "properties": { "country_code": "GIB", "country_name": "Gibraltar" }, "geometry": { "type": "Point", "coordinates": [ -5.349238210534473, 36.136504050756571 ] } },
  { "type": "Feature", "properties": { "country_code": "GIN", "country_name": "Guinea" }, "geometry": { "type": "Point", "coordinates": [ -10.936959367347521, 10.436253383849783 ] } },
  { "type": "Feature", "properties": { "country_code": "GLP", "country_name": "Guadeloupe" }, "geometry": { "type": "Point", "coordinates": [ -61.539305328565113, 16.197679377472177 ] } },
  { "type": "Feature", "properties": { "country_code": "GMB", "country_name": "Gambia" }, "geometry": { "type": "Point", "coordinates": [ -15.372899247942726, 13.451480669191746 ] } },
  { "type": "Feature", "properties": { "country_code": "GNB", "country_name": "Guinea-Bissau" }, "geometry": { "type": "Point", "coordinates": [ -14.98234833188725, 12.014623040609214 ] } },
  { "type": "Feature", "properties": { "country_code": "GNQ", "country_name": "Equatorial Guinea" }, "geometry": { "type": "Point", "coordinates": [ 10.332334672896614, 1.701663537605236 ] } },
  { "type": "Feature", "properties": { "country_code": "GRC", "country_name": "Greece" }, "geometry": { "type": "Point", "coordinates": [ 22.98606193913292, 39.041553899984223 ] } },
  { "type": "Feature", "properties": { "country_code": "GRD", "country_name": "Grenada" }, "geometry": { "type": "Point", "coordinates": [ -61.658644980962293, 12.153363625038017 ] } },
  { "type": "Feature", "properties": { "country_code": "GRL", "country_name": "Greenland" }, "geometry": { "type": "Point", "coordinates": [ -41.485576476649292, 74.677226545889582 ] } },
  { "type": "Feature", "properties": { "country_code": "GTM", "country_name": "Guatemala" }, "geometry": { "type": "Point", "coordinates": [ -90.354656782001811, 15.697563079913893 ] } },
  { "type": "Feature", "properties": { "country_code": "GUF", "country_name": "French Guiana" }, "geometry": { "type": "Point", "coordinates": [ -53.230951958402194, 3.930452400581497 ] } },
  { "type": "Feature", "properties": { "country_code": "GUM", "country_name": "Guam" }, "geometry": { "type": "Point", "coordinates": [ 144.776942158769799, 13.44339081897712 ] } },
  { "type": "Feature", "properties": { "country_code": "GUY", "country_name": "Guyana" }, "geometry": { "type": "Point", "coordinates": [ -58.979672740016639, 4.793326712256939 ] } },
  { "type": "Feature", "properties": { "country_code": "HKG", "country_name": "Hong Kong" }, "geometry": { "type": "Point", "coordinates": [ 114.134965055024097, 22.381120499331086 ] } },
  { "type": "Feature", "properties": { "country_code": "HMD", "country_name": "Heard Island and McDonald Islands" }, "geometry": { "type": "Point", "coordinates": [ 73.510627183055064, -53.092606963191592 ] } },
  { "type": "Feature", "properties": { "country_code": "HND", "country_name": "Honduras" }, "geometry": { "type": "Point", "coordinates": [ -86.616200116054969, 14.818247442115043 ] } },
  { "type": "Feature", "properties": { "country_code": "HRV", "country_name": "Croatia" }, "geometry": { "type": "Point", "coordinates": [ 16.390623835982336, 45.026915048048451 ] } },
  { "type": "Feature", "properties": { "country_code": "HTI", "country_name": "Haiti" }, "geometry": { "type": "Point", "coordinates": [ -72.683942889520068, 18.937387229925729 ] } },
  { "type": "Feature", "properties": { "country_code": "HUN", "country_name": "Hungary" }, "geometry": { "type": "Point", "coordinates": [ 19.414046331184821, 47.167322878555282 ] } },
  { "type": "Feature", "properties": { "country_code": "IDN", "country_name": "Indonesia" }, "geometry": { "type": "Point", "coordinates": [ 117.30292925201023, -2.236614078562819 ] } },
  { "type": "Feature", "properties": { "country_code": "IMN", "country_name": "Isle of Man" }, "geometry": { "type": "Point", "coordinates": [ -4.539158699613252, 54.227579874295756 ] } },
  { "type": "Feature", "properties": { "country_code": "IND", "country_name": "India" }, "geometry": { "type": "Point", "coordinates": [ 79.622524896457904, 22.882845754306931 ] } },
  { "type": "Feature", "properties": { "country_code": "IOT", "country_name": "British Indian Ocean Territory" }, "geometry": { "type": "Point", "coordinates": [ 72.120700111315116, -6.682924220746747 ] } },
  { "type": "Feature", "properties": { "country_code": "IRL", "country_name": "Ireland" }, "geometry": { "type": "Point", "coordinates": [ -8.15334749669476, 53.180266504434513 ] } },
  { "type": "Feature", "properties": { "country_code": "IRN", "country_name": "Iran" }, "geometry": { "type": "Point", "coordinates": [ 54.304030906293384, 32.557247048668707 ] } },
  { "type": "Feature", "properties": { "country_code": "IRQ", "country_name": "Iraq" }, "geometry": { "type": "Point", "coordinates": [ 43.754810726196553, 32.999864115439401 ] } },
  { "type": "Feature", "properties": { "country_code": "ISL", "country_name": "Iceland" }, "geometry": { "type": "Point", "coordinates": [ -18.581347800127883, 64.983169388232724 ] } },
  { "type": "Feature", "properties": { "country_code": "ISR", "country_name": "Israel" }, "geometry": { "type": "Point", "coordinates": [ 35.013168909531522, 31.455683184738465 ] } },
  { "type": "Feature", "properties": { "country_code": "ITA", "country_name": "Italy" }, "geometry": { "type": "Point", "coordinates": [ 12.07819959808403, 42.789728065538775 ] } },
  { "type": "Feature", "properties": { "country_code": "JAM", "country_name": "Jamaica" }, "geometry": { "type": "Point", "coordinates": [ -77.310311513038656, 18.156889423381912 ] } },
  { "type": "Feature", "properties": { "country_code": "JEY", "country_name": "Jersey" }, "geometry": { "type": "Point", "coordinates": [ -2.132466675945288, 49.21382318024888 ] } },
  { "type": "Feature", "properties": { "country_code": "JOR", "country_name": "Jordan" }, "geometry": { "type": "Point", "coordinates": [ 36.788881234913838, 31.249256309977334 ] } },
  { "type": "Feature", "properties": { "country_code": "JPN", "country_name": "Japan" }, "geometry": { "type": "Point", "coordinates": [ 137.949443966935235, 37.531200753744614 ] } },
  { "type": "Feature", "properties": { "country_code": "KAZ", "country_name": "Kazakhstan" }, "geometry": { "type": "Point", "coordinates": [ 67.255167041486203, 48.157378113032379 ] } },
  { "type": "Feature", "properties": { "country_code": "KEN", "country_name": "Kenya" }, "geometry": { "type": "Point", "coordinates": [ 37.845670554204162, 0.552740171675321 ] } },
  { "type": "Feature", "properties": { "country_code": "KGZ", "country_name": "Kyrgyzstan" }, "geometry": { "type": "Point", "coordinates": [ 74.560387832340126, 41.465047531827437 ] } },
  { "type": "Feature", "properties": { "country_code": "KHM", "country_name": "Cambodia" }, "geometry": { "type": "Point", "coordinates": [ 104.916873372022309, 12.708953878005456 ] } },
  { "type": "Feature", "properties": { "country_code": "KIR", "country_name": "Kiribati" }, "geometry": { "type": "Point", "coordinates": [ -39.193055432262057, 0.564570867737789 ] } },
  { "type": "Feature", "properties": { "country_code": "KNA", "country_name": "Saint Kitts and Nevis" }, "geometry": { "type": "Point", "coordinates": [ -62.70134105101544, 17.271858431425787 ] } },
  { "type": "Feature", "properties": { "country_code": "KOR", "country_name": "South Korea" }, "geometry": { "type": "Point", "coordinates": [ 127.79521238242657, 36.355168949644089 ] } },
  { "type": "Feature", "properties": { "country_code": "KWT", "country_name": "Kuwait" }, "geometry": { "type": "Point", "coordinates": [ 47.612983909172712, 29.354030580812005 ] } },
  { "type": "Feature", "properties": { "country_code": "LAO", "country_name": "Laos" }, "geometry": { "type": "Point", "coordinates": [ 103.768156356943877, 18.495176581680028 ] } },
  { "type": "Feature", "properties": { "country_code": "LBN", "country_name": "Lebanon" }, "geometry": { "type": "Point", "coordinates": [ 35.891703094088058, 33.919566536979161 ] } },
  { "type": "Feature", "properties": { "country_code": "LBR", "country_name": "Liberia" }, "geometry": { "type": "Point", "coordinates": [ -9.307268297832747, 6.445287165022986 ] } },
  { "type": "Feature", "properties": { "country_code": "LBY", "country_name": "Libya" }, "geometry": { "type": "Point", "coordinates": [ 18.031169793225668, 27.040322294032332 ] } },
  { "type": "Feature", "properties": { "country_code": "LCA", "country_name": "Saint Lucia" }, "geometry": { "type": "Point", "coordinates": [ -60.966757495767659, 13.898366127207252 ] } },
  { "type": "Feature", "properties": { "country_code": "LIE", "country_name": "Liechtenstein" }, "geometry": { "type": "Point", "coordinates": [ 9.553803085559517, 47.142462827730412 ] } },
  { "type": "Feature", "properties": { "country_code": "LKA", "country_name": "Sri Lanka" }, "geometry": { "type": "Point", "coordinates": [ 80.697868233874942, 7.621671795890196 ] } },
  { "type": "Feature", "properties": { "country_code": "LSO", "country_name": "Lesotho" }, "geometry": { "type": "Point", "coordinates": [ 28.246683992722556, -29.582960834138131 ] } },
  { "type": "Feature", "properties": { "country_code": "LTU", "country_name": "Lithuania" }, "geometry": { "type": "Point", "coordinates": [ 23.904837425170616, 55.334787486272141 ] } },
  { "type": "Feature", "properties": { "country_code": "LUX", "country_name": "Luxembourg" }, "geometry": { "type": "Point", "coordinates": [ 6.094188718632238, 49.77650032143778 ] } },
  { "type": "Feature", "properties": { "country_code": "LVA", "country_name": "Latvia" }, "geometry": { "type": "Point", "coordinates": [ 24.931584861610716, 56.853300538983248 ] } },
  { "type": "Feature", "properties": { "country_code": "MAC", "country_name": "Macao" }, "geometry": { "type": "Point", "coordinates": [ 113.561327331432267, 22.162336290945998 ] } },
  { "type": "Feature", "properties": { "country_code": "MAF", "country_name": "Saint-Martin" }, "geometry": { "type": "Point", "coordinates": [ -63.060271436803873, 18.079511596898289 ] } },
  { "type": "Feature", "properties": { "country_code": "MAR", "country_name": "Morocco" }, "geometry": { "type": "Point", "coordinates": [ -6.276140343552201, 31.846556588584559 ] } },
  { "type": "Feature", "properties": { "country_code": "MCO", "country_name": "Monaco" }, "geometry": { "type": "Point", "coordinates": [ 7.423269092625838, 43.735679123018059 ] } },
  { "type": "Feature", "properties": { "country_code": "MDA", "country_name": "Moldova" }, "geometry": { "type": "Point", "coordinates": [ 28.468528729059852, 47.204110695316317 ] } },
  { "type": "Feature", "properties": { "country_code": "MDG", "country_name": "Madagascar" }, "geometry": { "type": "Point", "coordinates": [ 46.698618356452187, -19.375648111804768 ] } },
  { "type": "Feature", "properties": { "country_code": "MDV", "country_name": "Maldives" }, "geometry": { "type": "Point", "coordinates": [ 73.225359670457649, 3.718028927960543 ] } },
  { "type": "Feature", "properties": { "country_code": "MEX", "country_name": "Mexico" }, "geometry": { "type": "Point", "coordinates": [ -102.547072868424777, 23.95053487074907 ] } },
  { "type": "Feature", "properties": { "country_code": "MHL", "country_name": "Marshall Islands" }, "geometry": { "type": "Point", "coordinates": [ 168.995694953844946, 8.660647859174697 ] } },
  { "type": "Feature", "properties": { "country_code": "MKD", "country_name": "Macedonia" }, "geometry": { "type": "Point", "coordinates": [ 21.691978226604625, 41.592964385674485 ] } },
  { "type": "Feature", "properties": { "country_code": "MLI", "country_name": "Mali" }, "geometry": { "type": "Point", "coordinates": [ -3.522151909808555, 17.356242734113909 ] } },
  { "type": "Feature", "properties": { "country_code": "MLT", "country_name": "Malta" }, "geometry": { "type": "Point", "coordinates": [ 14.399765196119704, 35.922929765593778 ] } },
  { "type": "Feature", "properties": { "country_code": "MMR", "country_name": "Myanmar" }, "geometry": { "type": "Point", "coordinates": [ 96.510201692660445, 21.117145977726736 ] } },
  { "type": "Feature", "properties": { "country_code": "MNE", "country_name": "Montenegro" }, "geometry": { "type": "Point", "coordinates": [ 19.237102937341714, 42.777373449121363 ] } },
  { "type": "Feature", "properties": { "country_code": "MNG", "country_name": "Mongolia" }, "geometry": { "type": "Point", "coordinates": [ 103.067028923565132, 46.836387135548833 ] } },
  { "type": "Feature", "properties": { "country_code": "MNP", "country_name": "Northern Mariana Islands" }, "geometry": { "type": "Point", "coordinates": [ 145.600405270071775, 16.012365409685813 ] } },
  { "type": "Feature", "properties": { "country_code": "MOZ", "country_name": "Mozambique" }, "geometry": { "type": "Point", "coordinates": [ 35.551437420086813, -17.259580382992155 ] } },
  { "type": "Feature", "properties": { "country_code": "MRT", "country_name": "Mauritania" }, "geometry": { "type": "Point", "coordinates": [ -10.337088639409256, 20.265139057089169 ] } },
  { "type": "Feature", "properties": { "country_code": "MSR", "country_name": "Montserrat" }, "geometry": { "type": "Point", "coordinates": [ -62.189684965272818, 16.73945199790521 ] } },
  { "type": "Feature", "properties": { "country_code": "MTQ", "country_name": "Martinique" }, "geometry": { "type": "Point", "coordinates": [ -61.017755413824766, 14.65263711759761 ] } },
  { "type": "Feature", "properties": { "country_code": "MUS", "country_name": "Mauritius" }, "geometry": { "type": "Point", "coordinates": [ 57.89582386810438, -20.119773669209906 ] } },
  { "type": "Feature", "properties": { "country_code": "MWI", "country_name": "Malawi" }, "geometry": { "type": "Point", "coordinates": [ 34.300483077444625, -13.215077634575463 ] } },
  { "type": "Feature", "properties": { "country_code": "MYS", "country_name": "Malaysia" }, "geometry": { "type": "Point", "coordinates": [ 109.706649422785134, 3.793687934180603 ] } },
  { "type": "Feature", "properties": { "country_code": "MYT", "country_name": "Mayotte" }, "geometry": { "type": "Point", "coordinates": [ 45.148405194397171, -12.82121990218371 ] } },
  { "type": "Feature", "properties": { "country_code": "NAM", "country_name": "Namibia" }, "geometry": { "type": "Point", "coordinates": [ 17.220510583689414, -22.139575468617835 ] } },
  { "type": "Feature", "properties": { "country_code": "NCL", "country_name": "New Caledonia" }, "geometry": { "type": "Point", "coordinates": [ 165.699849541319054, -21.306403422016412 ] } },
  { "type": "Feature", "properties": { "country_code": "NER", "country_name": "Niger" }, "geometry": { "type": "Point", "coordinates": [ 9.401244031867336, 17.42436730803956 ] } },
  { "type": "Feature", "properties": { "country_code": "NFK", "country_name": "Norfolk Island" }, "geometry": { "type": "Point", "coordinates": [ 167.952333188473744, -29.038242688209028 ] } },
  { "type": "Feature", "properties": { "country_code": "NGA", "country_name": "Nigeria" }, "geometry": { "type": "Point", "coordinates": [ 8.097576621733074, 9.592266563693777 ] } },
  { "type": "Feature", "properties": { "country_code": "NIC", "country_name": "Nicaragua" }, "geometry": { "type": "Point", "coordinates": [ -85.038389734718976, 12.843907332699752 ] } },
  { "type": "Feature", "properties": { "country_code": "NIU", "country_name": "Niue" }, "geometry": { "type": "Point", "coordinates": [ -169.858544300557185, -19.05241440534876 ] } },
  { "type": "Feature", "properties": { "country_code": "NLD", "country_name": "Netherlands" }, "geometry": { "type": "Point", "coordinates": [ 5.574516481838993, 52.263182511732936 ] } },
  { "type": "Feature", "properties": { "country_code": "NOR", "country_name": "Norway" }, "geometry": { "type": "Point", "coordinates": [ 14.069662537524515, 64.458384059114934 ] } },
  { "type": "Feature", "properties": { "country_code": "NPL", "country_name": "Nepal" }, "geometry": { "type": "Point", "coordinates": [ 83.946081286881522, 28.259041359775264 ] } },
  { "type": "Feature", "properties": { "country_code": "NRU", "country_name": "Nauru" }, "geometry": { "type": "Point", "coordinates": [ 166.934481645889576, -0.528468854293996 ] } },
  { "type": "Feature", "properties": { "country_code": "NZL", "country_name": "New Zealand" }, "geometry": { "type": "Point", "coordinates": [ 171.470792578441717, -41.825916399246886 ] } },
  { "type": "Feature", "properties": { "country_code": "OMN", "country_name": "Oman" }, "geometry": { "type": "Point", "coordinates": [ 56.095593707365879, 20.588542213049422 ] } },
  { "type": "Feature", "properties": { "country_code": "PAK", "country_name": "Pakistan" }, "geometry": { "type": "Point", "coordinates": [ 69.398314227492236, 29.963712586896229 ] } },
  { "type": "Feature", "properties": { "country_code": "PAN", "country_name": "Panama" }, "geometry": { "type": "Point", "coordinates": [ -80.109032735937419, 8.513102528098599 ] } },
  { "type": "Feature", "properties": { "country_code": "PCN", "country_name": "Pitcairn Islands" }, "geometry": { "type": "Point", "coordinates": [ -128.496099691195013, -24.426059598402958 ] } },
  { "type": "Feature", "properties": { "country_code": "PER", "country_name": "Peru" }, "geometry": { "type": "Point", "coordinates": [ -74.356842142086577, -9.172338022589555 ] } },
  { "type": "Feature", "properties": { "country_code": "PHL", "country_name": "Philippines" }, "geometry": { "type": "Point", "coordinates": [ 122.86576170600803, 11.735990586624007 ] } },
  { "type": "Feature", "properties": { "country_code": "PLW", "country_name": "Palau" }, "geometry": { "type": "Point", "coordinates": [ 134.494537277138392, 7.402710448493927 ] } },
  { "type": "Feature", "properties": { "country_code": "PNG", "country_name": "Papua New Guinea" }, "geometry": { "type": "Point", "coordinates": [ 145.254002090216886, -6.476837550299211 ] } },
  { "type": "Feature", "properties": { "country_code": "POL", "country_name": "Poland" }, "geometry": { "type": "Point", "coordinates": [ 19.393496614170562, 52.129529745940737 ] } },
  { "type": "Feature", "properties": { "country_code": "PRI", "country_name": "Puerto Rico" }, "geometry": { "type": "Point", "coordinates": [ -66.468147619581146, 18.22200985104876 ] } },
  { "type": "Feature", "properties": { "country_code": "PRK", "country_name": "North Korea" }, "geometry": { "type": "Point", "coordinates": [ 127.162779636155165, 40.134346927871249 ] } },
  { "type": "Feature", "properties": { "country_code": "PRT", "country_name": "Portugal" }, "geometry": { "type": "Point", "coordinates": [ -8.515003622389695, 39.596546298722544 ] } },
  { "type": "Feature", "properties": { "country_code": "PRY", "country_name": "Paraguay" }, "geometry": { "type": "Point", "coordinates": [ -58.392792283963999, -23.242963780174936 ] } },
  { "type": "Feature", "properties": { "country_code": "PSE", "country_name": "Palestina" }, "geometry": { "type": "Point", "coordinates": [ 35.209168142844213, 31.916059556091451 ] } },
  { "type": "Feature", "properties": { "country_code": "PYF", "country_name": "French Polynesia" }, "geometry": { "type": "Point", "coordinates": [ -145.320355644726988, -15.72116223109785 ] } },
  { "type": "Feature", "properties": { "country_code": "QAT", "country_name": "Qatar" }, "geometry": { "type": "Point", "coordinates": [ 51.190344256373571, 25.282224754663076 ] } },
  { "type": "Feature", "properties": { "country_code": "REU", "country_name": "Reunion" }, "geometry": { "type": "Point", "coordinates": [ 55.532684837909962, -21.133348282651259 ] } },
  { "type": "Feature", "properties": { "country_code": "ROU", "country_name": "Romania" }, "geometry": { "type": "Point", "coordinates": [ 24.985591229959653, 45.839710660317458 ] } },
  { "type": "Feature", "properties": { "country_code": "RUS", "country_name": "Russia" }, "geometry": { "type": "Point", "coordinates": [ 96.723303928081691, 61.980714618910845 ] } },
  { "type": "Feature", "properties": { "country_code": "RWA", "country_name": "Rwanda" }, "geometry": { "type": "Point", "coordinates": [ 29.92643480857911, -2.00047646839965 ] } },
  { "type": "Feature", "properties": { "country_code": "SAU", "country_name": "Saudi Arabia" }, "geometry": { "type": "Point", "coordinates": [ 44.555978861419149, 24.090770763011157 ] } },
  { "type": "Feature", "properties": { "country_code": "SDN", "country_name": "Sudan" }, "geometry": { "type": "Point", "coordinates": [ 30.005645426972418, 16.049376346823063 ] } },
  { "type": "Feature", "properties": { "country_code": "SEN", "country_name": "Senegal" }, "geometry": { "type": "Point", "coordinates": [ -14.470366603207097, 14.359107523281262 ] } },
  { "type": "Feature", "properties": { "country_code": "SGP", "country_name": "Singapore" }, "geometry": { "type": "Point", "coordinates": [ 103.815055839865266, 1.353455700176817 ] } },
  { "type": "Feature", "properties": { "country_code": "SGS", "country_name": "South Georgia and the South Sandwich Islands" }, "geometry": { "type": "Point", "coordinates": [ -35.910227232822791, -54.677476815849452 ] } },
  { "type": "Feature", "properties": { "country_code": "SHN", "country_name": "Saint Helena" }, "geometry": { "type": "Point", "coordinates": [ -10.486697041502067, -25.739246006596701 ] } },
  { "type": "Feature", "properties": { "country_code": "SJM", "country_name": "Svalbard and Jan Mayen" }, "geometry": { "type": "Point", "coordinates": [ 18.468181586789292, 78.856176288978531 ] } },
  { "type": "Feature", "properties": { "country_code": "SLB", "country_name": "Solomon Islands" }, "geometry": { "type": "Point", "coordinates": [ 159.571255997167356, -8.888066727647264 ] } },
  { "type": "Feature", "properties": { "country_code": "SLE", "country_name": "Sierra Leone" }, "geometry": { "type": "Point", "coordinates": [ -11.790250984124498, 8.556475489053531 ] } },
  { "type": "Feature", "properties": { "country_code": "SLV", "country_name": "El Salvador" }, "geometry": { "type": "Point", "coordinates": [ -88.867122146712916, 13.730219469858785 ] } },
  { "type": "Feature", "properties": { "country_code": "SMR", "country_name": "San Marino" }, "geometry": { "type": "Point", "coordinates": [ 12.460994375884964, 43.939052603719226 ] } },
  { "type": "Feature", "properties": { "country_code": "SOM", "country_name": "Somalia" }, "geometry": { "type": "Point", "coordinates": [ 45.869172443309395, 6.068281104220556 ] } },
  { "type": "Feature", "properties": { "country_code": "SPM", "country_name": "Saint Pierre and Miquelon" }, "geometry": { "type": "Point", "coordinates": [ -56.305841153135674, 46.929844009401279 ] } },
  { "type": "Feature", "properties": { "country_code": "SRB", "country_name": "Serbia" }, "geometry": { "type": "Point", "coordinates": [ 20.78200938580208, 44.226096086704345 ] } },
  { "type": "Feature", "properties": { "country_code": "SSD", "country_name": "South Sudan" }, "geometry": { "type": "Point", "coordinates": [ 30.321407832779236, 7.287290676423425 ] } },
  { "type": "Feature", "properties": { "country_code": "STP", "country_name": "São Tomé and Príncipe" }, "geometry": { "type": "Point", "coordinates": [ 6.716493515632566, 0.436447377177353 ] } },
  { "type": "Feature", "properties": { "country_code": "SUR", "country_name": "Suriname" }, "geometry": { "type": "Point", "coordinates": [ -55.915962314535612, 4.136236958314651 ] } },
  { "type": "Feature", "properties": { "country_code": "SVK", "country_name": "Slovakia" }, "geometry": { "type": "Point", "coordinates": [ 19.48343630045067, 48.709535604870915 ] } },
  { "type": "Feature", "properties": { "country_code": "SVN", "country_name": "Slovenia" }, "geometry": { "type": "Point", "coordinates": [ 14.818097688947992, 46.124457584818444 ] } },
  { "type": "Feature", "properties": { "country_code": "SWE", "country_name": "Sweden" }, "geometry": { "type": "Point", "coordinates": [ 16.75818669630338, 62.771387195120916 ] } },
  { "type": "Feature", "properties": { "country_code": "SWZ", "country_name": "Swaziland" }, "geometry": { "type": "Point", "coordinates": [ 31.498200512802452, -26.565444333575801 ] } },
  { "type": "Feature", "properties": { "country_code": "SXM", "country_name": "Sint Maarten" }, "geometry": { "type": "Point", "coordinates": [ -63.062311195391246, 18.038230603704822 ] } },
  { "type": "Feature", "properties": { "country_code": "SYC", "country_name": "Seychelles" }, "geometry": { "type": "Point", "coordinates": [ 51.755835001084861, -6.769313560181187 ] } },
  { "type": "Feature", "properties": { "country_code": "SYR", "country_name": "Syria" }, "geometry": { "type": "Point", "coordinates": [ 38.526778175100809, 35.024594806247983 ] } },
  { "type": "Feature", "properties": { "country_code": "TCA", "country_name": "Turks and Caicos Islands" }, "geometry": { "type": "Point", "coordinates": [ -71.824282034647467, 21.758022177202399 ] } },
  { "type": "Feature", "properties": { "country_code": "TCD", "country_name": "Chad" }, "geometry": { "type": "Point", "coordinates": [ 18.666658335477802, 15.364774519481717 ] } },
  { "type": "Feature", "properties": { "country_code": "TGO", "country_name": "Togo" }, "geometry": { "type": "Point", "coordinates": [ 0.976874861100437, 8.530168750750892 ] } },
  { "type": "Feature", "properties": { "country_code": "THA", "country_name": "Thailand" }, "geometry": { "type": "Point", "coordinates": [ 101.014805098133991, 15.110381794392733 ] } },
  { "type": "Feature", "properties": { "country_code": "TJK", "country_name": "Tajikistan" }, "geometry": { "type": "Point", "coordinates": [ 71.037527688236182, 38.528939486983212 ] } },
  { "type": "Feature", "properties": { "country_code": "TKL", "country_name": "Tokelau" }, "geometry": { "type": "Point", "coordinates": [ -171.782519070108776, -9.068788873864554 ] } },
  { "type": "Feature", "properties": { "country_code": "TKM", "country_name": "Turkmenistan" }, "geometry": { "type": "Point", "coordinates": [ 59.1790170866105, 39.192616061923559 ] } },
  { "type": "Feature", "properties": { "country_code": "TLS", "country_name": "Timor-Leste" }, "geometry": { "type": "Point", "coordinates": [ 125.851979463603328, -8.820333729016427 ] } },
  { "type": "Feature", "properties": { "country_code": "TON", "country_name": "Tonga" }, "geometry": { "type": "Point", "coordinates": [ -174.821616055892036, -19.856736839371706 ] } },
  { "type": "Feature", "properties": { "country_code": "TTO", "country_name": "Trinidad and Tobago" }, "geometry": { "type": "Point", "coordinates": [ -61.259290362983165, 10.47397911189748 ] } },
  { "type": "Feature", "properties": { "country_code": "TUN", "country_name": "Tunisia" }, "geometry": { "type": "Point", "coordinates": [ 9.578886877032526, 34.111070468632605 ] } },
  { "type": "Feature", "properties": { "country_code": "TUR", "country_name": "Turkey" }, "geometry": { "type": "Point", "coordinates": [ 35.176305438593729, 39.059952358108674 ] } },
  { "type": "Feature", "properties": { "country_code": "TUV", "country_name": "Tuvalu" }, "geometry": { "type": "Point", "coordinates": [ 178.094338551883254, -7.582400602560681 ] } },
  { "type": "Feature", "properties": { "country_code": "TWN", "country_name": "Taiwan" }, "geometry": { "type": "Point", "coordinates": [ 120.956585999412184, 23.752633095088967 ] } },
  { "type": "Feature", "properties": { "country_code": "TZA", "country_name": "Tanzania" }, "geometry": { "type": "Point", "coordinates": [ 34.82568355433316, -6.266219166747248 ] } },
  { "type": "Feature", "properties": { "country_code": "UGA", "country_name": "Uganda" }, "geometry": { "type": "Point", "coordinates": [ 32.391933719985651, 1.280967460133551 ] } },
  { "type": "Feature", "properties": { "country_code": "UKR", "country_name": "Ukraine" }, "geometry": { "type": "Point", "coordinates": [ 31.40550974236735, 49.0089210842293 ] } },
  { "type": "Feature", "properties": { "country_code": "UMI", "country_name": "United States Minor Outlying Islands" }, "geometry": { "type": "Point", "coordinates": [ -98.440467212802659, 15.924369277696105 ] } },
  { "type": "Feature", "properties": { "country_code": "URY", "country_name": "Uruguay" }, "geometry": { "type": "Point", "coordinates": [ -56.017791416961757, -32.793225479789157 ] } },
  { "type": "Feature", "properties": { "country_code": "USA", "country_name": "United States" }, "geometry": { "type": "Point", "coordinates": [ -112.470832548266642, 45.676256450428056 ] } },
  { "type": "Feature", "properties": { "country_code": "UZB", "country_name": "Uzbekistan" }, "geometry": { "type": "Point", "coordinates": [ 63.171377175694246, 41.750636823265992 ] } },
  { "type": "Feature", "properties": { "country_code": "VAT", "country_name": "Vatican City" }, "geometry": { "type": "Point", "coordinates": [ 12.452840393334768, 41.903544273626665 ] } },
  { "type": "Feature", "properties": { "country_code": "VCT", "country_name": "Saint Vincent and the Grenadines" }, "geometry": { "type": "Point", "coordinates": [ -61.200688056658841, 13.200474063365363 ] } },
  { "type": "Feature", "properties": { "country_code": "VEN", "country_name": "Venezuela" }, "geometry": { "type": "Point", "coordinates": [ -66.145935602958687, 7.132690386116685 ] } },
  { "type": "Feature", "properties": { "country_code": "VGB", "country_name": "British Virgin Islands" }, "geometry": { "type": "Point", "coordinates": [ -64.518446982380098, 18.502844875087685 ] } },
  { "type": "Feature", "properties": { "country_code": "VIR", "country_name": "Virgin Islands, U.S." }, "geometry": { "type": "Point", "coordinates": [ -64.802772928676063, 17.971699050431006 ] } },
  { "type": "Feature", "properties": { "country_code": "VNM", "country_name": "Vietnam" }, "geometry": { "type": "Point", "coordinates": [ 106.308065735382229, 16.645488764895727 ] } },
  { "type": "Feature", "properties": { "country_code": "VUT", "country_name": "Vanuatu" }, "geometry": { "type": "Point", "coordinates": [ 167.721196733525403, -16.211282898497185 ] } },
  { "type": "Feature", "properties": { "country_code": "WLF", "country_name": "Wallis and Futuna" }, "geometry": { "type": "Point", "coordinates": [ -177.105461894544021, -13.76670134857549 ] } },
  { "type": "Feature", "properties": { "country_code": "WSM", "country_name": "Samoa" }, "geometry": { "type": "Point", "coordinates": [ -172.172020185004783, -13.744718408650337 ] } },
  { "type": "Feature", "properties": { "country_code": "XAD", "country_name": "Akrotiri and Dhekelia" }, "geometry": { "type": "Point", "coordinates": [ 33.391692749101104, 34.839623472347903 ] } },
  { "type": "Feature", "properties": { "country_code": "XCL", "country_name": "Clipperton Island" }, "geometry": { "type": "Point", "coordinates": [ -109.216859835600971, 10.302855971229025 ] } },
  { "type": "Feature", "properties": { "country_code": "XKO", "country_name": "Kosovo" }, "geometry": { "type": "Point", "coordinates": [ 20.875452391432873, 42.565881260747439 ] } },
  { "type": "Feature", "properties": { "country_code": "XNC", "country_name": "Northern Cyprus" }, "geometry": { "type": "Point", "coordinates": [ 33.599328663063261, 35.27783385055087 ] } },
  { "type": "Feature", "properties": { "country_code": "XPI", "country_name": "Paracel Islands" }, "geometry": { "type": "Point", "coordinates": [ 112.329912821630188, 16.572909512647961 ] } },
  { "type": "Feature", "properties": { "country_code": "XSP", "country_name": "Spratly Islands" }, "geometry": { "type": "Point", "coordinates": [ 114.507979975369494, 10.83837305757017 ] } },
  { "type": "Feature", "properties": { "country_code": "YEM", "country_name": "Yemen" }, "geometry": { "type": "Point", "coordinates": [ 47.582758520362837, 15.904837252454209 ] } },
  { "type": "Feature", "properties": { "country_code": "ZAF", "country_name": "South Africa" }, "geometry": { "type": "Point", "coordinates": [ 25.086904724246892, -28.996292067603513 ] } },
  { "type": "Feature", "properties": { "country_code": "ZMB", "country_name": "Zambia" }, "geometry": { "type": "Point", "coordinates": [ 27.792636178328902, -13.462275293836381 ] } },
  { "type": "Feature", "properties": { "country_code": "ZWE", "country_name": "Zimbabwe" }, "geometry": { "type": "Point", "coordinates": [ 29.868837886640804, -19.000563312333448 ] } }
  ]
}